[{"SYSTEM_NO":"2800064","SYSTEM_NAM":"DAKOTA SHY WINERY","ADDRESS":"771 Sage Canyon Road","latitude":38.4865939,"longitude":-122.401241},{"SYSTEM_NO":"5403214","SYSTEM_NAM":null,"ADDRESS":"42268 SIERRA DR","latitude":36.4484546,"longitude":-118.900023},{"SYSTEM_NO":"4000829","SYSTEM_NAM":"VINES R.V. RESORT","ADDRESS":"88 WELLSONA","latitude":35.6970478,"longitude":-120.6958349},{"SYSTEM_NO":"0103039","SYSTEM_NAM":"MOHRLAND MUTUAL WATER SYSTEM","ADDRESS":"24927 Mohr Drive","latitude":37.642326,"longitude":-122.113223},{"SYSTEM_NO":"0103040","SYSTEM_NAM":"NORRIS CANYON PROPERTY OWNERS ASSN.","ADDRESS":"8653 Norris Canyon Road","latitude":37.7370767,"longitude":-122.0277303},{"SYSTEM_NO":"0103041","SYSTEM_NAM":"TRAILER HAVEN MOBILE HOME PARK","ADDRESS":"2399 East 14th Street SPC 28","latitude":37.7159947,"longitude":-122.1460405},{"SYSTEM_NO":"0103046","SYSTEM_NAM":"THE SEQUOIANS","ADDRESS":null,"latitude":37.7863804,"longitude":-122.0570837},{"SYSTEM_NO":"0103049","SYSTEM_NAM":"VAN COURT PUBLIC WATER SUPPLY","ADDRESS":null,"latitude":38.9514075,"longitude":-92.2054537},{"SYSTEM_NO":"0103050","SYSTEM_NAM":"CECILIA COURT WATER SYSTEM","ADDRESS":null,"latitude":37.9000789,"longitude":-122.4940013},{"SYSTEM_NO":"0104001","SYSTEM_NAM":"WASHINGTON HOSPITAL HEALTHCARE SYSTEM","ADDRESS":"2000 Mowry Avenue","latitude":37.55726,"longitude":-121.9797604},{"SYSTEM_NO":"0104002","SYSTEM_NAM":"PYZER WATER SYSTEM","ADDRESS":null,"latitude":-0.6297401561,"longitude":1.5448082618},{"SYSTEM_NO":"0104003","SYSTEM_NAM":"WEIBEL WATER SYSTEM","ADDRESS":null,"latitude":0.141157497,"longitude":-1.3726703136},{"SYSTEM_NO":"0104004","SYSTEM_NAM":"U. S. PIPE AND FOUNDRY","ADDRESS":"1295 Whipple Road","latitude":37.606751,"longitude":-122.0399341},{"SYSTEM_NO":"0104006","SYSTEM_NAM":"FREMONT COMMUNITY CHURCH","ADDRESS":null,"latitude":37.5593191,"longitude":-121.9536436},{"SYSTEM_NO":"0104010","SYSTEM_NAM":"MORTON SALT COMPANY","ADDRESS":"7380 Morton Avenue","latitude":37.5193495,"longitude":-122.0321345},{"SYSTEM_NO":"0104012","SYSTEM_NAM":"VULCAN MATERIALS, CALMAT DIVISION","ADDRESS":"365 No Canyons Parkway","latitude":37.7048711,"longitude":-121.8115088},{"SYSTEM_NO":"0104013","SYSTEM_NAM":"PLEASANTON GRAVEL COMPANY","ADDRESS":"P.O. Box 850","latitude":37.6436199,"longitude":-121.8676464},{"SYSTEM_NO":"0104014","SYSTEM_NAM":"HOSANNA HOMES - INACTIVE","ADDRESS":"9990 Crow Canyon Rd","latitude":37.7486049,"longitude":-122.0322608},{"SYSTEM_NO":"0105002","SYSTEM_NAM":"RIVERS END MARINA","ADDRESS":"Route 1, Box 22A","latitude":36.7546049,"longitude":-121.7652696},{"SYSTEM_NO":"0105003","SYSTEM_NAM":"CEMEX\/ELIOT PLANT","ADDRESS":"5180 Golden Hills Parkway","latitude":37.6679047,"longitude":-121.8857331},{"SYSTEM_NO":"0105004","SYSTEM_NAM":"MOUNTAIN HOUSE SCHOOL","ADDRESS":"25165 FLANDERS DR.","latitude":36.5583826,"longitude":-121.9099976},{"SYSTEM_NO":"0105006","SYSTEM_NAM":"HANSON AGGREGATE MID-PACIFIC, INC.","ADDRESS":"3000 Busch Road","latitude":37.6759975,"longitude":-121.860091},{"SYSTEM_NO":"0105008","SYSTEM_NAM":"CASTLEWOOD DOMESTIC WATER SYSTEM","ADDRESS":"707 Country Club Circle","latitude":37.6370418,"longitude":-121.8948562},{"SYSTEM_NO":"0105009","SYSTEM_NAM":"MOUNTAIN HOUSE SCHOOL","ADDRESS":"3950 Mountain House Road","latitude":37.7872506,"longitude":-121.5777821},{"SYSTEM_NO":"0105010","SYSTEM_NAM":"EBRPD - DEL VALLE REGIONAL PARK","ADDRESS":"7000 Del Valle Road","latitude":37.5715434,"longitude":-121.6877092},{"SYSTEM_NO":"0105011","SYSTEM_NAM":"EBRPD - SHADOW CLIFFS REGIONAL PARK","ADDRESS":"Stanley Blvd.","latitude":37.672371,"longitude":-121.839577},{"SYSTEM_NO":"0105012","SYSTEM_NAM":"EBRPD - SUNOL REGIONAL WILDERNESS","ADDRESS":null,"latitude":37.5148824,"longitude":-121.8311506},{"SYSTEM_NO":"0105013","SYSTEM_NAM":"EBRPD - REDWOOD SPRING REGIONAL PARK","ADDRESS":"Redwood Road","latitude":37.7748282,"longitude":-122.1222512},{"SYSTEM_NO":"0105014","SYSTEM_NAM":"EBRPD - GARIN REGIONAL PARK","ADDRESS":"End of Garin Road","latitude":37.6267411,"longitude":-122.0428876},{"SYSTEM_NO":"0105015","SYSTEM_NAM":"EBRPD - MISSION PEAK REGIONAL PRESERVE","ADDRESS":"P.O. Box 5381","latitude":37.7554905,"longitude":-122.1462193},{"SYSTEM_NO":"0105016","SYSTEM_NAM":"MOUNTAIN HOUSE BAR","ADDRESS":"8351 Rinuaro Court","latitude":37.7070179,"longitude":-121.408607},{"SYSTEM_NO":"0105017","SYSTEM_NAM":"RANCHO LOS MOCHOS-BSA CAMP","ADDRESS":"16784 W GRANT LINE RD","latitude":37.7582175,"longitude":-121.51528},{"SYSTEM_NO":"0105018","SYSTEM_NAM":"PURPLE ORCHID RESORT SPA","ADDRESS":"4549 Cross Rd","latitude":37.6676778,"longitude":-121.6766306},{"SYSTEM_NO":"0105020","SYSTEM_NAM":"ALAMEDA COUNTY FAIRGROUNDS","ADDRESS":"4501 Pleasanton Ave","latitude":37.6599327,"longitude":-121.8820906},{"SYSTEM_NO":"0105021","SYSTEM_NAM":"MOUNTAIN HOUSE GOLF COURSE","ADDRESS":"15000 Altamont Pass Rd","latitude":37.748607,"longitude":-121.600506},{"SYSTEM_NO":"0110001","SYSTEM_NAM":"ALAMEDA COUNTY WATER DISTRICT","ADDRESS":"P.O. Box 5110","latitude":37.55,"longitude":-121.97},{"SYSTEM_NO":"0110003","SYSTEM_NAM":"CALIFORNIA WATER SERVICE - LIVERMORE","ADDRESS":"195 South N Street","latitude":37.6795223,"longitude":-121.7736601},{"SYSTEM_NO":"0110005","SYSTEM_NAM":"EAST BAY MUD","ADDRESS":"375 Eleventh Street","latitude":37.8013164,"longitude":-122.2708386},{"SYSTEM_NO":"0110006","SYSTEM_NAM":"CITY OF HAYWARD","ADDRESS":"777 B Street","latitude":37.6709785,"longitude":-122.0856974},{"SYSTEM_NO":"0110008","SYSTEM_NAM":"CITY OF PLEASANTON","ADDRESS":"3333 Busch Road","latitude":37.6773208,"longitude":-121.8589525},{"SYSTEM_NO":"0110009","SYSTEM_NAM":"DUBLIN SAN RAMON SERVICES DISTRICT","ADDRESS":"7051 Dublin Blvd.","latitude":37.7061902,"longitude":-121.9213997},{"SYSTEM_NO":"0110010","SYSTEM_NAM":"ZONE 7 WATER AGENCY","ADDRESS":"100 N Canyon Pkwy","latitude":37.7054288,"longitude":-121.8072818},{"SYSTEM_NO":"0110011","SYSTEM_NAM":"CITY OF LIVERMORE","ADDRESS":"Water Resources Division","latitude":37.6912091,"longitude":-121.8075066},{"SYSTEM_NO":"0110012","SYSTEM_NAM":"TOWN OF SUNOL-SFPUC","ADDRESS":"SF Public Utilities Commission","latitude":37.7792913,"longitude":-122.4135879},{"SYSTEM_NO":"0110013","SYSTEM_NAM":"STIVERS ACADEMY","ADDRESS":"Mr. Jack Stivers","latitude":37.6818745,"longitude":-121.7680088},{"SYSTEM_NO":"0110014","SYSTEM_NAM":"VILLA TASSAJARA","ADDRESS":"Mr. Rod Scott","latitude":37.6436199,"longitude":-121.8676464},{"SYSTEM_NO":"0110015","SYSTEM_NAM":"PG&E - BETHANY COMPRESSOR STATION","ADDRESS":"375 North Wiget Lane, Suite 20","latitude":37.9290213,"longitude":-122.0282502},{"SYSTEM_NO":"0110016","SYSTEM_NAM":"ALAMEDA POINT","ADDRESS":"Alameda Point","latitude":37.7860582,"longitude":-122.3181623},{"SYSTEM_NO":"0110017","SYSTEM_NAM":"BELVOIR SPRINGS","ADDRESS":"Mission Blvd.","latitude":37.5766348,"longitude":-121.9719035},{"SYSTEM_NO":"0110018","SYSTEM_NAM":"SFPUC-PLEASANTON WELLS","ADDRESS":null,"latitude":37.6624312,"longitude":-121.8746789},{"SYSTEM_NO":"0110019","SYSTEM_NAM":"GOLDEN GATE CHURCH","ADDRESS":"2950 Niles Canyon Road","latitude":37.5957167,"longitude":-121.953671},{"SYSTEM_NO":"0110020","SYSTEM_NAM":"UTILITY VAULT","ADDRESS":"1901 Isabel Ave","latitude":37.6575749,"longitude":-121.8056515},{"SYSTEM_NO":"0110650","SYSTEM_NAM":"USBR-SLDMWA - CVP JONES PUMPING PLANT","ADDRESS":"15990 Kelso Road","latitude":37.7948092,"longitude":-121.5862265},{"SYSTEM_NO":"0110700","SYSTEM_NAM":"PARKS RFTA","ADDRESS":"HQ Command - Bldg. 270","latitude":37.7021521,"longitude":-121.9357918},{"SYSTEM_NO":"0190001","SYSTEM_NAM":"Dublin San Ramon Services District","ADDRESS":"Dublin San Ramon Services Dist","latitude":37.7061959,"longitude":-121.9213972},{"SYSTEM_NO":"0190002","SYSTEM_NAM":"City of Livermore","ADDRESS":"City of Livermore Water Resour","latitude":37.6912091,"longitude":-121.8075066},{"SYSTEM_NO":"0190003","SYSTEM_NAM":"EBMUD ENAQUA UV","ADDRESS":"375 ELEVENTH STREET","latitude":37.8013164,"longitude":-122.2708386},{"SYSTEM_NO":"0190004","SYSTEM_NAM":"East Bay Municipal Utility District","ADDRESS":"PO Box 24055","latitude":37.8013825,"longitude":-122.2708183},{"SYSTEM_NO":"0190005","SYSTEM_NAM":"EBMUD - E Bayshore Recycled Water","ADDRESS":"EBMUD Office of Water Recyclin","latitude":37.8013825,"longitude":-122.2708183},{"SYSTEM_NO":"0190006","SYSTEM_NAM":"City of Hayward","ADDRESS":"777 B Street","latitude":37.6709785,"longitude":-122.0856974},{"SYSTEM_NO":"0190007","SYSTEM_NAM":"DERWA","ADDRESS":"7051 Dublin Blvd","latitude":37.7061902,"longitude":-121.9213997},{"SYSTEM_NO":"0190008","SYSTEM_NAM":"City of San Leandro","ADDRESS":"Engineering and Transportation Dept","latitude":37.7286649,"longitude":-122.1593992},{"SYSTEM_NO":"0190009","SYSTEM_NAM":"CITY OF PLEASANTON","ADDRESS":null,"latitude":37.6624312,"longitude":-121.8746789},{"SYSTEM_NO":"0201000","SYSTEM_NAM":"BLOOMFIELD CAMPGROUND #1 & #2","ADDRESS":"19777 GREENLEY RD","latitude":37.9817137,"longitude":-120.3677451},{"SYSTEM_NO":"0201001","SYSTEM_NAM":"HIGHLAND LAKES CAMPGROUND","ADDRESS":"19777 GREENLEY RD","latitude":37.9817137,"longitude":-120.3677451},{"SYSTEM_NO":"0201002","SYSTEM_NAM":"GROVER HOT SPRINGS STATE PARK","ADDRESS":null,"latitude":38.6960394,"longitude":-119.8438595},{"SYSTEM_NO":"0202251","SYSTEM_NAM":"ALPINE SR CENTER","ADDRESS":null,"latitude":39.091056,"longitude":-122.792665},{"SYSTEM_NO":"0202501","SYSTEM_NAM":"DIAMOND VALLEY SCHOOL","ADDRESS":"43 HAWKSIDE DRIVE","latitude":38.766357,"longitude":-119.8088535},{"SYSTEM_NO":"0202502","SYSTEM_NAM":"WOODFORDS STATION","ADDRESS":"290 PONY EXPRESS ROAD","latitude":38.7768838,"longitude":-119.822525},{"SYSTEM_NO":"0202503","SYSTEM_NAM":"WOODFORDS MUTUAL WATER COMPANY","ADDRESS":"PO BOX 191","latitude":38.6937227,"longitude":-119.7796826},{"SYSTEM_NO":"0202504","SYSTEM_NAM":"MARKLEEVILLE WATER CO.","ADDRESS":"PO BOX 131","latitude":38.6937227,"longitude":-119.7796826},{"SYSTEM_NO":"0202505","SYSTEM_NAM":"PACIFIC VALLEY CAMPGROUND","ADDRESS":null,"latitude":38.5174096,"longitude":-119.9024042},{"SYSTEM_NO":"0202506","SYSTEM_NAM":"CAPLES LAKE RESORT","ADDRESS":"PO BOX 8","latitude":38.6847514,"longitude":-120.0651665},{"SYSTEM_NO":"0202508","SYSTEM_NAM":"LAKE ALPINE IMPROVEMENT ASSN 2\/BEE GULCH","ADDRESS":"1149 HOLLYHEAD LANE","latitude":37.3041615,"longitude":-122.0407056},{"SYSTEM_NO":"0202509","SYSTEM_NAM":"LAKE ALPINE IMP. ASSOC.","ADDRESS":"13975 RANCHO VERDE","latitude":39.4015887,"longitude":-119.7154783},{"SYSTEM_NO":"0202512","SYSTEM_NAM":"SORENSON S RESORT","ADDRESS":"14255 HWY 88","latitude":38.7746318,"longitude":-119.9030552},{"SYSTEM_NO":"0202513","SYSTEM_NAM":"SHAY CREEK SUMMER HOME TRACT","ADDRESS":"PO BOX 149","latitude":38.6937227,"longitude":-119.7796826},{"SYSTEM_NO":"0202515","SYSTEM_NAM":"CARSON RIVER RESORT","ADDRESS":"12399 HIGHWAY 89","latitude":38.6896334,"longitude":-119.7647615},{"SYSTEM_NO":"0202516","SYSTEM_NAM":"SORENSON S HOA","ADDRESS":"326 CREST AVE.","latitude":37.8727719,"longitude":-122.0509397},{"SYSTEM_NO":"0202517","SYSTEM_NAM":"LAKE ALPINE REC. AREA","ADDRESS":"19777 GREENLEY RD.","latitude":37.9825529,"longitude":-120.3668925},{"SYSTEM_NO":"0202519","SYSTEM_NAM":"TURTLE ROCK COUNTY PARK","ADDRESS":"50 DIAMOND VALLEY ROAD","latitude":38.770964,"longitude":-119.816854},{"SYSTEM_NO":"0202520","SYSTEM_NAM":"HOPE VALLEY RESORT","ADDRESS":"114655 HWY 88","latitude":38.7485499,"longitude":-119.9421411},{"SYSTEM_NO":"0202521","SYSTEM_NAM":"WOODFORD S INN","ADDRESS":"P O BOX 420","latitude":38.6937227,"longitude":-119.7796826},{"SYSTEM_NO":"0202522","SYSTEM_NAM":"SIERRA PINES MOBILE HOME PARK","ADDRESS":"PO BOX 1708","latitude":38.9283883,"longitude":-119.7298951},{"SYSTEM_NO":"0202523","SYSTEM_NAM":"BLOOMFIELD CG #1","ADDRESS":"19777 GREENLEY RD.","latitude":37.9825529,"longitude":-120.3668925},{"SYSTEM_NO":"0202524","SYSTEM_NAM":"HIGHLAND LKS #1","ADDRESS":"119777 GREENLEY RD.","latitude":37.9815398,"longitude":-120.3684951},{"SYSTEM_NO":"0202525","SYSTEM_NAM":"HIGHLAND LAKES #2","ADDRESS":"USFS-STANISLAUSE NF","latitude":37.9817137,"longitude":-120.3677451},{"SYSTEM_NO":"0202529","SYSTEM_NAM":"HOPE VALLEY CG","ADDRESS":"1536 S CARSON ST.","latitude":39.1522889,"longitude":-119.7677114},{"SYSTEM_NO":"0202530","SYSTEM_NAM":"SILVER CREEK CG","ADDRESS":"1536 S CARSON ST.","latitude":39.1522889,"longitude":-119.7677114},{"SYSTEM_NO":"0202531","SYSTEM_NAM":"SNOWSHOE SPRINGS CG","ADDRESS":"1536 S. CARSON ST.","latitude":39.1522889,"longitude":-119.7677114},{"SYSTEM_NO":"0202532","SYSTEM_NAM":"CRYSTAL SPRINGS CG","ADDRESS":"1536 S. CARSON ST.","latitude":39.1522889,"longitude":-119.7677114},{"SYSTEM_NO":"0202542","SYSTEM_NAM":"WOODS LAKE REC. AREA","ADDRESS":"100 FORNI RD.","latitude":38.7211242,"longitude":-120.8295709},{"SYSTEM_NO":"0202543","SYSTEM_NAM":"INDIAN CREEK RES. CG (BLM)","ADDRESS":"1535 HOT SPRINGS RD.","latitude":39.1924225,"longitude":-119.7508809},{"SYSTEM_NO":"0202546","SYSTEM_NAM":"CAPLES LAKE CG","ADDRESS":"100 FORNI RD.","latitude":38.7211242,"longitude":-120.8295709},{"SYSTEM_NO":"0202547","SYSTEM_NAM":"CAMP LIAHONA","ADDRESS":"PO BOX 1747","latitude":38.0385049,"longitude":-120.2295831},{"SYSTEM_NO":"0202548","SYSTEM_NAM":"CAMP PEACEFUL PINES","ADDRESS":"#3 CLARKS FORK RD","latitude":0.2293299245,"longitude":1.4468472154},{"SYSTEM_NO":"0202549","SYSTEM_NAM":"BEAR VALLEY SKI COMPANY","ADDRESS":"PO BOX 5038","latitude":38.4653569,"longitude":-120.0403519},{"SYSTEM_NO":"0202550","SYSTEM_NAM":"CO. OF ALPINE SOCIAL SERVICES BLDG.","ADDRESS":"75 DIAMOND VALLEY RD.","latitude":38.7692681,"longitude":-119.816918},{"SYSTEM_NO":"0202551","SYSTEM_NAM":"ALPINE CO SENIOR CITIZEN CTR","ADDRESS":"PO BOX                    3","latitude":38.6950524,"longitude":-119.7801146},{"SYSTEM_NO":"0202552","SYSTEM_NAM":"BLUE LAKES C.G. DAM & MID","ADDRESS":"5555 FLORIN-PERKINS RD.","latitude":38.5257732,"longitude":-121.3897679}]